{
"type": "FeatureCollection",
"name": "ubs_zu_amostras_20perc",
"crs": { "type": "name", "properties": { "name": "urn:ogc:def:crs:EPSG::4674" } },
"xy_coordinate_resolution": 1e-10,
"features": [
{ "type": "Feature", "properties": { "fid": 1, "nome": "UBS A BENICIO FREIRE E SILVA-POTY VELHO", "cnes": "2588811", "logradouro": "RUA MARIO AUGUSTO FREITAS", "numero": "1469", "bairro": "POTY VELHO", "cep": "64005830", "regional": "NORTE" }, "geometry": { "type": "Point", "coordinates": [ -42.827858, -5.036847 ] } },
{ "type": "Feature", "properties": { "fid": 5, "nome": "UBS DR FELIPE EULALIO DE PADUA-PROMORAR", "cnes": "6901468", "logradouro": "PRACA DO CENTRO DE PRODUCAO DO PROMORAR", "numero": "QD 61", "bairro": "PROMORAR", "cep": "64027140", "regional": "SUL" }, "geometry": { "type": "Point", "coordinates": [ -42.781754, -5.147854 ] } },
{ "type": "Feature", "properties": { "fid": 7, "nome": "UBS FERNANDO G C LIMA- PORTAL DA ALEGRIA", "cnes": "5343054", "logradouro": "RUA 13/18", "numero": "S/N", "bairro": "PORTAL DA ALEGRIA III", "cep": "64037074", "regional": "SUL" }, "geometry": { "type": "Point", "coordinates": [ -42.744347, -5.188967 ] } },
{ "type": "Feature", "properties": { "fid": 10, "nome": "UBS DR HELVIDIO FERRAZ-TODOS OS SANTOS", "cnes": "2443937", "logradouro": "AV. PROFESSOR CAMILO FILHO", "numero": "6133", "bairro": "TODOS OS SANTOS", "cep": "64089040", "regional": "SUDESTE" }, "geometry": { "type": "Point", "coordinates": [ -42.721881, -5.098719 ] } },
{ "type": "Feature", "properties": { "fid": 20, "nome": "UBS FRANCILIO RIBEIRO DE ALMEIDA-ANGELIM", "cnes": "2444135", "logradouro": "RUA B", "numero": "S/N", "bairro": "ANGELIM", "cep": "64034360", "regional": "SUL" }, "geometry": { "type": "Point", "coordinates": [ -42.790336, -5.175489 ] } },
{ "type": "Feature", "properties": { "fid": 24, "nome": "UBS IRMA DULCE", "cnes": "2444062", "logradouro": "RUA SANTA FRANCISCA CABRINI", "numero": "S/N", "bairro": "ANGELIM", "cep": "64000270", "regional": "SUL" }, "geometry": { "type": "Point", "coordinates": [ -42.773719, -5.190669 ] } },
{ "type": "Feature", "properties": { "fid": 32, "nome": "UBS MARIA TERESA DE MELO COSTA-MAFRENSE", "cnes": "2444097", "logradouro": "RUA RUI BARBOSA", "numero": "S\\N", "bairro": "MAFRENSE", "cep": "64002180", "regional": "NORTE" }, "geometry": { "type": "Point", "coordinates": [ -42.83115, -5.047619 ] } },
{ "type": "Feature", "properties": { "fid": 33, "nome": "UBS DR ADONIAS R DE CARVALHO - MEMORARE", "cnes": "3367096", "logradouro": "RUA SOTERO VAZ DA SILVEIRA", "numero": "4511", "bairro": "MEMORARE", "cep": "64008177", "regional": "NORTE" }, "geometry": { "type": "Point", "coordinates": [ -42.820435, -5.047721 ] } },
{ "type": "Feature", "properties": { "fid": 40, "nome": "UBS DIOCINA DE S LIMA NETA- PARQUE PIAUI", "cnes": "9382356", "logradouro": "QD 26", "numero": "S/N", "bairro": "PARQUE PIAUI", "cep": "64025090", "regional": "SUL" }, "geometry": { "type": "Point", "coordinates": [ -42.791164, -5.141786 ] } },
{ "type": "Feature", "properties": { "fid": 42, "nome": "UBS PICARREIRA", "cnes": "2443988", "logradouro": "AV JOAO ANTONIO LEITAO", "numero": "4577", "bairro": "PICARREIRA I", "cep": "64025530", "regional": "LESTE" }, "geometry": { "type": "Point", "coordinates": [ -42.7596579, -5.0642484 ] } },
{ "type": "Feature", "properties": { "fid": 45, "nome": "UBS MARLENE D DE MOURA FE - REDONDA", "cnes": "5352444", "logradouro": "RUA DOIS", "numero": "S/N", "bairro": "SOL NASCENTE", "cep": "64077830", "regional": "SUDESTE" }, "geometry": { "type": "Point", "coordinates": [ -42.742148, -5.093167 ] } },
{ "type": "Feature", "properties": { "fid": 48, "nome": "UBS SANTA MARIA DA CODIPI", "cnes": "2406039", "logradouro": "RUA RAIMUNDO DOROTEIA", "numero": "S N", "bairro": "SANTA MARIA DA CODIPI", "cep": "64012450", "regional": "NORTE" }, "geometry": { "type": "Point", "coordinates": [ -42.84281, -4.98376 ] } },
{ "type": "Feature", "properties": { "fid": 54, "nome": "UBS TANIA M MELO RODRIGUES-MONTE CASTELO", "cnes": "6924603", "logradouro": "RUA ZITO BATISTA", "numero": "S/N", "bairro": "MONTE CASTELO", "cep": "64016210", "regional": "SUL" }, "geometry": { "type": "Point", "coordinates": [ -42.794657, -5.104021 ] } },
{ "type": "Feature", "properties": { "fid": 57, "nome": "UBS VILA BANDEIRANTE", "cnes": "2444038", "logradouro": "RUA DOM BOSCO - EM FRENTE A PRACA", "numero": "S/N", "bairro": "VILA BANDEIRANTE II", "cep": "64059370", "regional": "LESTE" }, "geometry": { "type": "Point", "coordinates": [ -42.752339, -5.045961 ] } },
{ "type": "Feature", "properties": { "fid": 73, "nome": "UBS ANTONIO CARLOS COSTA - CRISTO REI", "cnes": "3810852", "logradouro": "RUA PADRE AUREO DE OLIVEIRA", "numero": "1966", "bairro": "CRISTO REI", "cep": "64015470", "regional": "SUL" }, "geometry": { "type": "Point", "coordinates": [ -42.785196, -5.099674 ] } },
{ "type": "Feature", "properties": { "fid": 78, "nome": "UBS CECY FORTES", "cnes": "2407043", "logradouro": "AV JACOB ALMENDRA", "numero": "630", "bairro": "PORENQUANTO", "cep": "64003000", "regional": "NORTE" }, "geometry": { "type": "Point", "coordinates": [ -42.805222, -5.076004 ] } },
{ "type": "Feature", "properties": { "fid": 81, "nome": "UBS BRUNO RAFAEL R. DE SOUSA - ESPLANADA", "cnes": "5225884", "logradouro": "RUA SAO VALENTINO", "numero": "7720", "bairro": "ESPLANADA", "cep": "64003810", "regional": "SUL" }, "geometry": { "type": "Point", "coordinates": [ -42.76315, -5.194 ] } },
{ "type": "Feature", "properties": { "fid": 92, "nome": "UBS DR. PEDRO M SOBRINHO - PARQUE POTI", "cnes": "0448958", "logradouro": "RUA EGIDIO MOTA", "numero": "S/N", "bairro": "RENASCENCA", "cep": "64082068", "regional": "SUDESTE" }, "geometry": { "type": "Point", "coordinates": [ -42.737826, -5.105527 ] } }
]
}
